{
  "type": "FeatureCollection",
  "features": [
    {
      "geometry": {
        "type": "Point",
        "coordinates": [ 23.93218827226301, 52.68400095664496 ]
      },
      "type": "Feature",
      "properties": {
        "name": "yaga",
		"video": "f-15DYjVxXk",
		"audio": {
			"ru": "513319641",
			"pl": "515697630"
		}
      }
    },
	{
      "geometry": {
        "type": "Point",
        "coordinates": [ 23.927132, 52.574028 ]
      },
      "type": "Feature",
      "properties": {
        "name": "puschevik",
		"video": "-kM544Brvv4",
		"audio": {
			"ru": "507966561",
			"pl": "515697606"
		}
      }
    },
	{
      "geometry": {
        "type": "Point",
        "coordinates": [ 23.880961, 52.769928 ]
      },
      "type": "Feature",
      "properties": {
        "name": "vodyanoi",
		"video": "AiwEu73C81E",
		"audio": {
			"ru": "507966654",
			"pl": "515697591"
		}
      }
    },
	{
      "geometry": {
        "type": "Point",
        "coordinates": [ 23.835231, 52.823232 ]
      },
      "type": "Feature",
      "properties": {
        "name": "zazovka",
		"video": "aNeEOJ-T5G4",
		"audio": {
			"ru": "507966636",
			"pl": "515696211"
		}
      }
    },
	{
      "geometry": {
        "type": "Point",
        "coordinates": [ 23.866965, 52.614938 ]
      },
      "type": "Feature",
      "properties": {
        "name": "ulya",
		"video": "ec1N3EDr7iI",
		"audio": {
			"ru": "507966642",
			"pl": ""
		}
      }
    },
	{
      "geometry": {
        "type": "Point",
        "coordinates": [ 23.849583, 52.646378 ]
      },
      "type": "Feature",
      "properties": {
        "name": "leshij",
		"video": "7cidEcUr1X8",
		"audio": {
			"ru": "507966615",
			"pl": "515697627"
		}
      }
    },
	{
      "geometry": {
        "type": "Point",
        "coordinates": [ 24.045836, 52.556165 ]
      },
      "type": "Feature",
      "properties": {
        "name": "liho",
		"video": "bKWedCg5NLI",
		"audio": {
			"ru": "507966609",
			"pl": "515697624"
		}
      }
    },
	{
      "geometry": {
        "type": "Point",
        "coordinates": [ 23.735455, 52.655611 ]
      },
      "type": "Feature",
      "properties": {
        "name": "pasechnik",
		"video": "i5sfoL3bRfU",
		"audio": {
			"ru": "507966579",
			"pl": "515697612"
		}
      }
    },
	{
      "geometry": {
        "type": "Point",
        "coordinates": [ 23.864176, 52.629858 ]
      },
      "type": "Feature",
      "properties": {
        "name": "rusalki",
		"video": "Q9Ntc0JGZYA",
		"audio": {
			"ru": "507966552",
			"pl": "515697618"
		}
      }
    },
	{
      "geometry": {
        "type": "Point",
        "coordinates": [ 23.896866, 52.580984 ]
      },
      "type": "Feature",
      "properties": {
        "name": "vegetandry",
		"video": "SvsfJpzlEEQ",
		"audio": {
			"ru": "513515712",
			"pl": "515697603"
		}
      }
    }
  ]
}