{
  "type": "FeatureCollection",
  "features": [
    {
      "geometry": {
        "type": "Point",
        "coordinates": [ 23.93218827226301, 52.68400095664496 ]
      },
      "type": "Feature",
      "properties": {
        "name": "yaga",
		"video": "UhN744j0jvQ",
		"audio": "513319641"
      }
    },
	{
      "geometry": {
        "type": "Point",
        "coordinates": [ 23.927132, 52.574028 ]
      },
      "type": "Feature",
      "properties": {
        "name": "puschevik",
		"video": "UhN744j0jvQ",
		"audio": "507966561"
      }
    },
	{
      "geometry": {
        "type": "Point",
        "coordinates": [ 23.880961, 52.769928 ]
      },
      "type": "Feature",
      "properties": {
        "name": "vodyanoi",
		"video": "AiwEu73C81E",
		"audio": "507966654"
      }
    },
	{
      "geometry": {
        "type": "Point",
        "coordinates": [ 23.835231, 52.823232 ]
      },
      "type": "Feature",
      "properties": {
        "name": "zazovka",
		"video": "UhN744j0jvQ",
		"audio": "507966636"
      }
    },
	{
      "geometry": {
        "type": "Point",
        "coordinates": [ 23.866965, 52.614938 ]
      },
      "type": "Feature",
      "properties": {
        "name": "ulya",
		"video": "UhN744j0jvQ",
		"audio": "507966642"
      }
    },
	{
      "geometry": {
        "type": "Point",
        "coordinates": [ 23.849583, 52.646378 ]
      },
      "type": "Feature",
      "properties": {
        "name": "leshij",
		"video": "UhN744j0jvQ",
		"audio": "507966615"
      }
    },
	{
      "geometry": {
        "type": "Point",
        "coordinates": [ 24.045836, 52.556165 ]
      },
      "type": "Feature",
      "properties": {
        "name": "liho",
		"video": "bKWedCg5NLI",
		"audio": "507966609"
      }
    },
	{
      "geometry": {
        "type": "Point",
        "coordinates": [ 23.735455, 52.655611 ]
      },
      "type": "Feature",
      "properties": {
        "name": "pasechnik",
		"video": "UhN744j0jvQ",
		"audio": "507966579"
      }
    },
	{
      "geometry": {
        "type": "Point",
        "coordinates": [ 23.864176, 52.629858 ]
      },
      "type": "Feature",
      "properties": {
        "name": "rusalki",
		"video": "Q9Ntc0JGZYA",
		"audio": "507966552"
      }
    },
	{
      "geometry": {
        "type": "Point",
        "coordinates": [ 23.896866, 52.580984 ]
      },
      "type": "Feature",
      "properties": {
        "name": "vegetandry",
		"video": "UhN744j0jvQ",
		"audio": "513515712"
      }
    }
  ]
}